~VERSION INFORMATION
 VERS.               2.00:   CWLS LOG ASCII STANDARD - VERSION 2.00
 WRAP.                 NO:   ONE LINE PER DEPTH STEP
~WELL INFORMATION
#MNEM.UNIT      DATA TYPE    INFORMATION
#----------   ------------   ------------------------------
STRT.ft     3670.0000 : START DEPTH
STOP.ft     3769.5000 : STOP DEPTH
STEP.ft     0.5000 : DEPTH STEP
NULL.       -999.9900 : NULL VALUE
COMP.    Emerald City Service : COMPANY
WELL.    Glinda #460 : WELL
FLD .    Poppy West : FIELD
LOC .    Over the Rainbow : LOCATION
DATE.    10 10 10 : LOG DATE
UWI .    1234567 : WELL ID
~CURVE INFORMATION
#MNEM.UNIT       CURVE DESCRIPTION
#----------      ------------------------------
DEPT.ft     : DEPTH
GR  .API          : Gamma Ray
NPHI.V/V          : Neutron Porosity, Ls (fraction)
DPHI.V/V          : Density Porosity, Ls (fraction)
PEF .             : Photoelectric Factor
TRUL.             : True Lithology
~OTHER INFORMATION
#MNEM.UNIT    DATA   INFORMATION
#---------   ------  -----------
GEOL.    You! : GEOLOGIST
~A
3670.0000 69.9375 0.2539 -0.3106 9.3618 13
3670.5000 72.4761 0.2515 -0.3175 9.4849 13
3671.0000 73.1094 0.2519 -0.2983 9.1491 13
3671.5000 70.9016 0.2584 -0.2136 7.7248 13
3672.0000 75.3093 0.2888 0.0321 3.6322 11
3672.5000 76.2444 0.3220 0.1539 1.9688 11
3673.0000 75.8660 0.3222 0.1818 1.5524 11
3673.5000 75.0508 0.3121 0.1746 1.5597 11
3674.0000 79.1720 0.3064 0.1623 1.5625 11
3674.5000 80.9374 0.3069 0.1611 1.5618 11
3675.0000 82.8890 0.3064 0.1567 1.5615 11
3675.5000 79.9600 0.3181 0.1718 1.5543 11
3676.0000 77.1817 0.3252 0.1866 1.5506 11
3676.5000 77.2324 0.3362 0.1921 1.5422 11
3677.0000 79.1230 0.3286 0.1804 1.5469 11
3677.5000 81.6892 0.3152 0.1638 1.5554 11
3678.0000 81.2144 0.3143 0.1651 1.5564 11
3678.5000 80.7277 0.3070 0.1623 1.5619 11
3679.0000 78.9771 0.2997 0.1588 1.5673 11
3679.5000 76.8618 0.2966 0.1561 1.5691 11
3680.0000 73.5065 0.3156 0.1751 1.5564 11
3680.5000 75.2388 0.3030 0.1585 1.5643 11
3681.0000 74.6032 0.3053 0.1698 1.5700 11
3681.5000 67.2169 0.2964 0.1927 1.6016 11
3682.0000 40.1708 0.2736 0.2646 1.6822 12
3682.5000 29.2390 0.2482 0.2808 1.7156 12
3683.0000 26.4255 0.2279 0.2703 1.7409 12
3683.5000 26.0449 0.2254 0.2710 1.7293 12
3684.0000 24.8666 0.2539 0.2998 1.7005 12
3684.5000 21.6520 0.2614 0.3089 1.6862 12
3685.0000 23.2738 0.2521 0.2922 1.6835 12
3685.5000 35.8497 0.2454 0.2478 1.6761 12
3686.0000 64.5597 0.2833 0.1908 1.6032 11
3686.5000 75.9098 0.3053 0.1710 1.5683 11
3687.0000 78.5186 0.3032 0.1586 1.5641 11
3687.5000 75.4223 0.3239 0.1795 1.5503 11
3688.0000 75.3274 0.3248 0.1778 1.5495 11
3688.5000 76.2186 0.3110 0.1641 1.5589 11
3689.0000 76.0595 0.3065 0.1592 1.5619 11
3689.5000 77.6259 0.3016 0.1525 1.5648 11
3690.0000 78.7400 0.2989 0.1524 1.5669 11
3690.5000 81.8992 0.3141 0.1623 1.5561 11
3691.0000 80.3575 0.3142 0.1643 1.5563 11
3691.5000 78.1579 0.3007 0.1585 1.5664 11
3692.0000 74.2736 0.3035 0.1649 1.5652 11
3692.5000 72.6367 0.3071 0.1697 1.5630 11
3693.0000 74.0409 0.3196 0.1787 1.5541 11
3693.5000 73.7411 0.3230 0.1822 1.5518 11
3694.0000 72.7377 0.3249 0.1859 1.5508 11
3694.5000 73.0632 0.3206 0.1847 1.5542 11
3695.0000 76.7241 0.3188 0.1815 1.5552 11
3695.5000 77.6509 0.3189 0.1773 1.5545 11
3696.0000 80.2219 0.3147 0.1705 1.5568 11
3696.5000 82.1581 0.3040 0.1532 1.5629 11
3697.0000 80.4985 0.3088 0.1570 1.5596 11
3697.5000 77.7276 0.3026 0.1521 1.5639 11
3698.0000 76.3975 0.3104 0.1625 1.5592 11
3698.5000 74.6052 0.3124 0.1723 1.5591 11
3699.0000 73.6721 0.3105 0.1776 1.5643 11
3699.5000 62.5088 0.2858 0.1955 1.6040 11
3700.0000 37.5483 0.2391 0.2391 1.6964 12
3700.5000 30.9456 0.2228 0.2500 1.7677 12
3701.0000 30.2653 0.2243 0.2586 1.7783 12
3701.5000 28.6255 0.2381 0.2701 1.7757 12
3702.0000 28.5852 0.2578 0.2877 1.7660 12
3702.5000 28.1313 0.2538 0.2886 1.7489 12
3703.0000 32.5613 0.2412 0.2728 1.7741 12
3703.5000 33.4616 0.2229 0.2560 1.7849 12
3704.0000 33.1239 0.2201 0.2518 1.7931 12
3704.5000 29.8135 0.2193 0.2557 1.7739 12
3705.0000 29.2707 0.2405 0.2726 1.7310 12
3705.5000 38.7186 0.2534 0.2494 1.7036 12
3706.0000 61.4736 0.2994 0.2086 1.6039 11
3706.5000 72.5638 0.3021 0.1725 1.5736 11
3707.0000 75.8061 0.3140 0.1742 1.5579 11
3707.5000 77.2498 0.3210 0.1794 1.5531 11
3708.0000 77.1770 0.3199 0.1767 1.5535 11
3708.5000 79.6910 0.3135 0.1639 1.5568 11
3709.0000 77.6865 0.3120 0.1672 1.5585 11
3709.5000 75.3857 0.3217 0.1796 1.5521 11
3710.0000 74.8743 0.3007 0.1633 1.5670 11
3710.5000 75.3464 0.3028 0.1658 1.5659 11
3711.0000 76.0983 0.3130 0.1675 1.5578 11
3711.5000 77.9717 0.3205 0.1723 1.5524 11
3712.0000 79.3264 0.3229 0.1775 1.5511 11
3712.5000 81.3661 0.3109 0.1659 1.5593 11
3713.0000 80.3004 0.3151 0.1795 1.4913 11
3713.5000 65.8391 0.3394 0.2673 1.2203 11
3714.0000 29.4896 0.4027 0.4944 0.5437 14
3714.5000 14.4698 0.4413 0.5946 0.2774 14
3715.0000 13.2108 0.4427 0.5959 0.2781 14
3715.5000 27.9386 0.4206 0.5089 0.5485 14
3716.0000 62.5418 0.3527 0.2835 1.2188 11
3716.5000 76.7763 0.3373 0.2059 1.4788 11
3717.0000 79.4002 0.3228 0.1808 1.5517 11
3717.5000 78.9998 0.3123 0.1693 1.5586 11
3718.0000 78.4822 0.2996 0.1568 1.5671 11
3718.5000 77.9318 0.3048 0.1600 1.5634 11
3719.0000 75.1754 0.3070 0.1690 1.5695 11
3719.5000 65.6082 0.2870 0.1838 1.6130 11
3720.0000 42.2378 0.2481 0.2382 1.7130 12
3720.5000 30.9098 0.2237 0.2549 1.7460 12
3721.0000 24.8136 0.2209 0.2634 1.7474 12
3721.5000 23.9022 0.2296 0.2707 1.7453 12
3722.0000 28.8639 0.2333 0.2678 1.7696 12
3722.5000 31.5739 0.2340 0.2631 1.7915 12
3723.0000 29.1133 0.2189 0.2511 1.7921 12
3723.5000 27.7647 0.2198 0.2575 1.7679 12
3724.0000 23.8844 0.2355 0.2785 1.7309 12
3724.5000 20.8370 0.2396 0.2845 1.7190 12
3725.0000 20.1283 0.2492 0.2946 1.7064 12
3725.5000 25.2255 0.2421 0.2776 1.7557 12
3726.0000 27.9857 0.2561 0.2874 1.7610 12
3726.5000 25.8106 0.2642 0.3013 1.7286 12
3727.0000 24.0802 0.2515 0.2911 1.7246 12
3727.5000 42.7412 0.2513 0.2527 1.8691 12
3728.0000 91.1612 0.2602 0.1559 2.2640 11
3728.5000 109.5889 0.2624 0.1213 2.4045 11
3729.0000 114.0009 0.2674 0.1136 2.4495 11
3729.5000 114.0078 0.2842 0.1292 2.4472 11
3730.0000 115.3865 0.2703 0.1173 2.4458 11
3730.5000 114.2829 0.2747 0.1248 2.4340 11
3731.0000 112.4731 0.2714 0.1202 2.4395 11
3731.5000 113.3012 0.2712 0.1202 2.4385 11
3732.0000 116.5616 0.2584 0.0986 2.4720 11
3732.5000 116.3971 0.2607 0.0976 2.4825 11
3733.0000 109.7095 0.2446 0.0953 2.5777 11
3733.5000 90.9055 0.1990 0.0834 3.0259 11
3734.0000 42.3499 0.1049 0.0640 4.1737 8
3734.5000 21.5223 0.0503 0.0378 4.6637 8
3735.0000 13.4479 0.0451 0.0430 4.6985 8
3735.5000 12.1701 0.0731 0.0602 4.4714 8
3736.0000 12.9128 0.1041 0.0604 4.0317 5
3736.5000 15.3730 0.1101 0.0571 3.8121 5
3737.0000 15.7168 0.0989 0.0446 3.7935 5
3737.5000 16.4769 0.0845 0.0300 3.8540 5
3738.0000 15.0554 0.0908 0.0328 3.8775 5
3738.5000 14.4918 0.1066 0.0494 3.8681 5
3739.0000 14.7456 0.1041 0.0474 3.8723 5
3739.5000 13.7355 0.0880 0.0279 3.8881 5
3740.0000 14.2284 0.0819 0.0207 3.9136 5
3740.5000 16.3081 0.0918 0.0349 3.8761 5
3741.0000 17.0364 0.1105 0.0522 3.9074 5
3741.5000 17.1252 0.1074 0.0478 3.9080 5
3742.0000 13.5019 0.1133 0.0565 3.8428 5
3742.5000 11.9784 0.1191 0.0633 3.8308 5
3743.0000 12.0495 0.1262 0.0691 3.7679 5
3743.5000 11.9610 0.1222 0.0598 3.7873 5
3744.0000 13.3361 0.1215 0.0600 3.8041 5
3744.5000 14.7625 0.1183 0.0642 3.8073 5
3745.0000 12.5501 0.1219 0.0675 3.8206 5
3745.5000 12.2885 0.1196 0.0613 3.8406 5
3746.0000 14.4143 0.1108 0.0517 3.8691 5
3746.5000 15.9295 0.1020 0.0436 3.8561 5
3747.0000 15.5900 0.0894 0.0257 3.8493 5
3747.5000 14.5231 0.0905 0.0174 3.7129 5
3748.0000 14.5254 0.1172 0.0234 3.2724 4
3748.5000 16.4914 0.1522 0.0455 3.0678 4
3749.0000 17.8343 0.1517 0.0382 3.0600 4
3749.5000 16.7336 0.1524 0.0416 3.0843 4
3750.0000 15.1966 0.1491 0.0391 3.0570 4
3750.5000 16.0511 0.1504 0.0369 2.9985 4
3751.0000 22.5059 0.1574 0.0425 2.9680 4
3751.5000 41.9814 0.1801 0.0431 2.9980 4
3752.0000 90.7790 0.2635 0.0590 2.9574 11
3752.5000 110.1219 0.2907 0.0588 2.9449 11
3753.0000 112.9620 0.2848 0.0471 2.9525 11
3753.5000 110.7991 0.2917 0.0564 2.9434 11
3754.0000 112.8662 0.2994 0.0622 2.9369 11
3754.5000 113.6108 0.3176 0.0848 2.9137 11
3755.0000 107.2587 0.3105 0.0860 3.0017 11
3755.5000 85.8538 0.2369 0.0274 3.4223 11
3756.0000 42.1786 0.0799 -0.0921 4.4492 3
3756.5000 23.8767 0.0126 -0.1409 4.8917 3
3757.0000 24.0107 0.0091 -0.1417 4.9512 3
3757.5000 39.3441 0.0665 -0.0975 4.7088 3
3758.0000 84.1606 0.2182 0.0141 4.0456 11
3758.5000 104.9298 0.2712 0.0474 3.7873 11
3759.0000 104.9327 0.2662 0.0413 3.7993 11
3759.5000 88.4321 0.2108 -0.0003 4.0352 11
3760.0000 44.4001 0.0689 -0.1015 4.6717 3
3760.5000 29.3486 0.0157 -0.1407 4.9055 3
3761.0000 25.2259 0.0008 -0.1510 4.9734 3
3761.5000 20.6445 -0.0038 -0.1526 5.0017 3
3762.0000 22.1952 -0.0019 -0.1520 4.9903 3
3762.5000 20.8421 -0.0009 -0.1516 4.9838 3
3763.0000 22.4161 0.0008 -0.1510 4.9734 3
3763.5000 16.0700 -0.0095 -0.1544 5.0365 3
3764.0000 13.8850 -0.0112 -0.1550 5.0473 3
3764.5000 14.5298 -0.0102 -0.1547 5.0407 3
3765.0000 22.4367 0.0103 -0.1420 4.9401 3
